<?xml version="1.0" encoding="UTF-8"?>
<!-- licence CC BY-NC-SA 4.0 https://creativecommons.org/licenses/by-nc-sa/4.0/ data provided by https://www.descente-canyon.com/ and all their excellent committers, you rock! -->
<kml xmlns="http://www.opengis.net/kml/2.2">
    <Document>
        <Style id="info">
            <IconStyle>
                <Icon>
                    <href>http://maps.google.com/mapfiles/kml/shapes/info.png</href>
                </Icon>
                <hotSpot x="32" y="1" xunits="pixels" yunits="pixels"/>
            </IconStyle>
            <ListStyle>
            </ListStyle>
        </Style>
        <StyleMap id="msn_info">
            <Pair>
                <key>normal</key>
                <styleUrl>#info</styleUrl>
            </Pair>
            <Pair>
                <key>highlight</key>
                <styleUrl>#info</styleUrl>
            </Pair>
        </StyleMap>

        <Placemark>
            <name>Mouna 2.2</name>
            <description> URL: https://www.descente-canyon.com/canyoning/canyon/21/Mouna.html</description>
            <styleUrl>#msn_info</styleUrl>
            <Point>
                <coordinates>5.561600,44.868481</coordinates>
            </Point>
        </Placemark>

        <Placemark>
            <name>Pellas 1.4</name>
            <description> URL: https://www.descente-canyon.com/canyoning/canyon/22/Pellas.html</description>
            <styleUrl>#msn_info</styleUrl>
            <Point>
                <coordinates>5.564678,44.867012</coordinates>
            </Point>
        </Placemark>

        <Placemark>
            <name>Moules Marini&#xe8;res 2.7</name>
            <description> URL: https://www.descente-canyon.com/canyoning/canyon/23/Moules-Marinieres.html</description>
            <styleUrl>#msn_info</styleUrl>
            <Point>
                <coordinates>5.570253,44.955158</coordinates>
            </Point>
        </Placemark>

        <Placemark>
            <name>Pissarde - Partie Amont 2.4</name>
            <description> URL: https://www.descente-canyon.com/canyoning/canyon/24/Pissarde---Partie-Amont.html</description>
            <styleUrl>#msn_info</styleUrl>
            <Point>
                <coordinates>5.645943,45.104424</coordinates>
            </Point>
        </Placemark>

        <Placemark>
            <name>Pissarde - Partie Aval 2.7</name>
            <description> URL: https://www.descente-canyon.com/canyoning/canyon/25/Pissarde---Partie-Aval.html</description>
            <styleUrl>#msn_info</styleUrl>
            <Point>
                <coordinates>5.657500,45.108601</coordinates>
            </Point>
        </Placemark>

        <Placemark>
            <name>Furon (partie haute) 2.6</name>
            <description> URL: https://www.descente-canyon.com/canyoning/canyon/26/Furon-partie-haute.html</description>
            <styleUrl>#msn_info</styleUrl>
            <Point>
                <coordinates>5.627935,45.193050</coordinates>
            </Point>
        </Placemark>

        <Placemark>
            <name>Furon (partie basse) 2.4</name>
            <description> URL: https://www.descente-canyon.com/canyoning/canyon/27/Furon-partie-basse.html</description>
            <styleUrl>#msn_info</styleUrl>
            <Point>
                <coordinates>5.656944,45.207779</coordinates>
            </Point>
        </Placemark>

        <Placemark>
            <name>Colombi&#xe8;re 2.1</name>
            <description> URL: https://www.descente-canyon.com/canyoning/canyon/28/Colombiere.html</description>
            <styleUrl>#msn_info</styleUrl>
            <Point>
                <coordinates>5.551164,45.272968</coordinates>
            </Point>
        </Placemark>

        <Placemark>
            <name>Versoud (Partie Haute) 2.4</name>
            <description> URL: https://www.descente-canyon.com/canyoning/canyon/29/Versoud-Partie-Haute.html</description>
            <styleUrl>#msn_info</styleUrl>
            <Point>
                <coordinates>5.516389,45.202221</coordinates>
            </Point>
        </Placemark>

        <Placemark>
            <name>Versoud (partie basse) 2.7</name>
            <description> URL: https://www.descente-canyon.com/canyoning/canyon/210/Versoud-partie-basse.html</description>
            <styleUrl>#msn_info</styleUrl>
            <Point>
                <coordinates>5.500000,45.220554</coordinates>
            </Point>
        </Placemark>

        <Placemark>
            <name>Ecouges (Partie I) 3.5</name>
            <description> URL: https://www.descente-canyon.com/canyoning/canyon/211/Ecouges-Partie-I.html</description>
            <styleUrl>#msn_info</styleUrl>
            <Point>
                <coordinates>5.498300,45.177502</coordinates>
            </Point>
        </Placemark>

        <Placemark>
            <name>Ecouges (Partie II) 3.1</name>
            <description> URL: https://www.descente-canyon.com/canyoning/canyon/212/Ecouges-Partie-II.html</description>
            <styleUrl>#msn_info</styleUrl>
            <Point>
                <coordinates>5.492177,45.179420</coordinates>
            </Point>
        </Placemark>

        <Placemark>
            <name>Gorgonnets 0.0</name>
            <description> URL: https://www.descente-canyon.com/canyoning/canyon/213/Gorgonnets.html</description>
            <styleUrl>#msn_info</styleUrl>
            <Point>
                <coordinates>5.472071,45.190277</coordinates>
            </Point>
        </Placemark>

        <Placemark>
            <name>Gaz 1.9</name>
            <description> URL: https://www.descente-canyon.com/canyoning/canyon/214/Gaz.html</description>
            <styleUrl>#msn_info</styleUrl>
            <Point>
                <coordinates>5.497222,45.180832</coordinates>
            </Point>
        </Placemark>

        <Placemark>
            <name>Ruisant 2.8</name>
            <description> URL: https://www.descente-canyon.com/canyoning/canyon/215/Ruisant.html</description>
            <styleUrl>#msn_info</styleUrl>
            <Point>
                <coordinates>5.458611,45.188473</coordinates>
            </Point>
        </Placemark>

        <Placemark>
            <name>Moulin 0.0</name>
            <description> URL: https://www.descente-canyon.com/canyoning/canyon/216/Moulin.html</description>
            <styleUrl>#msn_info</styleUrl>
            <Point>
                <coordinates>5.438762,45.156071</coordinates>
            </Point>
        </Placemark>

        <Placemark>
            <name>Malin 2.5</name>
            <description> URL: https://www.descente-canyon.com/canyoning/canyon/217/Malin.html</description>
            <styleUrl>#msn_info</styleUrl>
            <Point>
                <coordinates>5.436111,45.155003</coordinates>
            </Point>
        </Placemark>

        <Placemark>
            <name>Neyron 2.8</name>
            <description> URL: https://www.descente-canyon.com/canyoning/canyon/218/Neyron.html</description>
            <styleUrl>#msn_info</styleUrl>
            <Point>
                <coordinates>5.390722,45.135387</coordinates>
            </Point>
        </Placemark>

        <Placemark>
            <name>Bourne 0.0</name>
            <description> URL: https://www.descente-canyon.com/canyoning/canyon/219/Bourne.html</description>
            <styleUrl>#msn_info</styleUrl>
            <Point>
                <coordinates>5.459006,45.083767</coordinates>
            </Point>
        </Placemark>

        <Placemark>
            <name>Ruzand 3.5</name>
            <description> URL: https://www.descente-canyon.com/canyoning/canyon/220/Ruzand.html</description>
            <styleUrl>#msn_info</styleUrl>
            <Point>
                <coordinates>5.388056,45.126389</coordinates>
            </Point>
        </Placemark>

        <Placemark>
            <name>Arodin 2.1</name>
            <description> URL: https://www.descente-canyon.com/canyoning/canyon/221/Arodin.html</description>
            <styleUrl>#msn_info</styleUrl>
            <Point>
                <coordinates>5.491962,45.817734</coordinates>
            </Point>
        </Placemark>

        <Placemark>
            <name>Brize 1.7</name>
            <description> URL: https://www.descente-canyon.com/canyoning/canyon/222/Brize.html</description>
            <styleUrl>#msn_info</styleUrl>
            <Point>
                <coordinates>5.715734,45.935322</coordinates>
            </Point>
        </Placemark>

        <Placemark>
            <name>Trefond - Pernaz 2.6</name>
            <description> URL: https://www.descente-canyon.com/canyoning/canyon/223/Trefond---Pernaz.html</description>
            <styleUrl>#msn_info</styleUrl>
            <Point>
                <coordinates>5.463209,45.817493</coordinates>
            </Point>
        </Placemark>

        <Placemark>
            <name>Rh&#xe9;by 2.7</name>
            <description> URL: https://www.descente-canyon.com/canyoning/canyon/224/Rheby.html</description>
            <styleUrl>#msn_info</styleUrl>
            <Point>
                <coordinates>5.440807,45.855228</coordinates>
            </Point>
        </Placemark>

        <Placemark>
            <name>Vezeronce 2.5</name>
            <description> URL: https://www.descente-canyon.com/canyoning/canyon/225/Vezeronce.html</description>
            <styleUrl>#msn_info</styleUrl>
            <Point>
                <coordinates>5.800159,46.023064</coordinates>
            </Point>
        </Placemark>

        <Placemark>
            <name>Diosaz 0.0</name>
            <description> URL: https://www.descente-canyon.com/canyoning/canyon/226/Diosaz.html</description>
            <styleUrl>#msn_info</styleUrl>
            <Point>
                <coordinates>6.789722,45.936573</coordinates>
            </Point>
        </Placemark>

        <Placemark>
            <name>Fier null</name>
            <description> URL: https://www.descente-canyon.com/canyoning/canyon/227/Fier.html</description>
            <styleUrl>#msn_info</styleUrl>
            <Point>
                <coordinates>6.036944,45.895412</coordinates>
            </Point>
        </Placemark>

        <Placemark>
            <name>Giffre 2.9</name>
            <description> URL: https://www.descente-canyon.com/canyoning/canyon/228/Giffre.html</description>
            <styleUrl>#msn_info</styleUrl>
            <Point>
                <coordinates>6.492673,46.122570</coordinates>
            </Point>
        </Placemark>

        <Placemark>
            <name>Saint-Vincent 3.1</name>
            <description> URL: https://www.descente-canyon.com/canyoning/canyon/229/Saint-Vincent.html</description>
            <styleUrl>#msn_info</styleUrl>
            <Point>
                <coordinates>2.415739,42.537704</coordinates>
            </Point>
        </Placemark>

        <Placemark>
            <name>Eaux Chaudes 1.8</name>
            <description> URL: https://www.descente-canyon.com/canyoning/canyon/230/Eaux-Chaudes.html</description>
            <styleUrl>#msn_info</styleUrl>
            <Point>
                <coordinates>2.244331,42.527611</coordinates>
            </Point>
        </Placemark>

        <Placemark>
            <name>Galamus 2.3</name>
            <description> URL: https://www.descente-canyon.com/canyoning/canyon/231/Galamus.html</description>
            <styleUrl>#msn_info</styleUrl>
            <Point>
                <coordinates>2.479563,42.839451</coordinates>
            </Point>
        </Placemark>

        <Placemark>
            <name>Haut Tech 1.9</name>
            <description> URL: https://www.descente-canyon.com/canyoning/canyon/232/Haut-Tech.html</description>
            <styleUrl>#msn_info</styleUrl>
            <Point>
                <coordinates>2.377067,42.415504</coordinates>
            </Point>
        </Placemark>

        <Placemark>
            <name>Maria Valenta 2.6</name>
            <description> URL: https://www.descente-canyon.com/canyoning/canyon/233/Maria-Valenta.html</description>
            <styleUrl>#msn_info</styleUrl>
            <Point>
                <coordinates>2.627215,42.443317</coordinates>
            </Point>
        </Placemark>

        <Placemark>
            <name>Pi 2.4</name>
            <description> URL: https://www.descente-canyon.com/canyoning/canyon/234/Pi.html</description>
            <styleUrl>#msn_info</styleUrl>
            <Point>
                <coordinates>2.673536,42.441074</coordinates>
            </Point>
        </Placemark>

        <Placemark>
            <name>Baoussous 2.3</name>
            <description> URL: https://www.descente-canyon.com/canyoning/canyon/235/Baoussous.html</description>
            <styleUrl>#msn_info</styleUrl>
            <Point>
                <coordinates>2.756746,42.478855</coordinates>
            </Point>
        </Placemark>

        <Placemark>
            <name>Nyer 0.0</name>
            <description> URL: https://www.descente-canyon.com/canyoning/canyon/236/Nyer.html</description>
            <styleUrl>#msn_info</styleUrl>
            <Point>
                <coordinates>2.283185,42.522274</coordinates>
            </Point>
        </Placemark>

        <Placemark>
            <name>Llech 3.6</name>
            <description> URL: https://www.descente-canyon.com/canyoning/canyon/237/Llech.html</description>
            <styleUrl>#msn_info</styleUrl>
            <Point>
                <coordinates>2.463030,42.585026</coordinates>
            </Point>
        </Placemark>

        <Placemark>
            <name>Roc Rouge 1.6</name>
            <description> URL: https://www.descente-canyon.com/canyoning/canyon/238/Roc-Rouge.html</description>
            <styleUrl>#msn_info</styleUrl>
            <Point>
                <coordinates>2.399392,42.797451</coordinates>
            </Point>
        </Placemark>

        <Placemark>
            <name>Aigues Bonnes 1.4</name>
            <description> URL: https://www.descente-canyon.com/canyoning/canyon/239/Aigues-Bonnes.html</description>
            <styleUrl>#msn_info</styleUrl>
            <Point>
                <coordinates>2.376651,42.796360</coordinates>
            </Point>
        </Placemark>

        <Placemark>
            <name>Liscou 0.9</name>
            <description> URL: https://www.descente-canyon.com/canyoning/canyon/240/Liscou.html</description>
            <styleUrl>#msn_info</styleUrl>
            <Point>
                <coordinates>2.446139,42.574192</coordinates>
            </Point>
        </Placemark>

        <Placemark>
            <name>Taurinya 3.1</name>
            <description> URL: https://www.descente-canyon.com/canyoning/canyon/241/Taurinya.html</description>
            <styleUrl>#msn_info</styleUrl>
            <Point>
                <coordinates>2.437318,42.560444</coordinates>
            </Point>
        </Placemark>

        <Placemark>
            <name>Gourg des Anelles 3.0</name>
            <description> URL: https://www.descente-canyon.com/canyoning/canyon/242/Gourg-des-Anelles.html</description>
            <styleUrl>#msn_info</styleUrl>
            <Point>
                <coordinates>2.734576,42.470905</coordinates>
            </Point>
        </Placemark>

        <Placemark>
            <name>Mas Cal Sant 2.8</name>
            <description> URL: https://www.descente-canyon.com/canyoning/canyon/243/Mas-Cal-Sant.html</description>
            <styleUrl>#msn_info</styleUrl>
            <Point>
                <coordinates>2.715528,42.471092</coordinates>
            </Point>
        </Placemark>

        <Placemark>
            <name>Can Guillet 0.0</name>
            <description> URL: https://www.descente-canyon.com/canyoning/canyon/244/Can-Guillet.html</description>
            <styleUrl>#msn_info</styleUrl>
            <Point>
                <coordinates>2.701698,42.468918</coordinates>
            </Point>
        </Placemark>

        <Placemark>
            <name>Cady 3.2</name>
            <description> URL: https://www.descente-canyon.com/canyoning/canyon/245/Cady.html</description>
            <styleUrl>#msn_info</styleUrl>
            <Point>
                <coordinates>2.397718,42.513649</coordinates>
            </Point>
        </Placemark>

        <Placemark>
            <name>Dietrich 1.0</name>
            <description> URL: https://www.descente-canyon.com/canyoning/canyon/246/Dietrich.html</description>
            <styleUrl>#msn_info</styleUrl>
            <Point>
                <coordinates>2.402444,42.530003</coordinates>
            </Point>
        </Placemark>

        <Placemark>
            <name>Raton 3.2</name>
            <description> URL: https://www.descente-canyon.com/canyoning/canyon/247/Raton.html</description>
            <styleUrl>#msn_info</styleUrl>
            <Point>
                <coordinates>6.964479,44.041737</coordinates>
            </Point>
        </Placemark>

        <Placemark>
            <name>Amen (cascades finales) 3.3</name>
            <description> URL: https://www.descente-canyon.com/canyoning/canyon/248/Amen-cascades-finales.html</description>
            <styleUrl>#msn_info</styleUrl>
            <Point>
                <coordinates>6.848472,44.053749</coordinates>
            </Point>
        </Placemark>

        <Placemark>
            <name>Cianavelle (amont sup&#xe9;rieur) 2.4</name>
            <description> URL: https://www.descente-canyon.com/canyoning/canyon/249/Cianavelle-amont-superieur.html</description>
            <styleUrl>#msn_info</styleUrl>
            <Point>
                <coordinates>6.948241,44.011520</coordinates>
            </Point>
        </Placemark>

        <Placemark>
            <name>Saint Auban 2.6</name>
            <description> URL: https://www.descente-canyon.com/canyoning/canyon/250/Saint-Auban.html</description>
            <styleUrl>#msn_info</styleUrl>
            <Point>
                <coordinates>6.729402,43.851582</coordinates>
            </Point>
        </Placemark>

        <Placemark>
            <name>Ullion 2.1</name>
            <description> URL: https://www.descente-canyon.com/canyoning/canyon/251/Ullion.html</description>
            <styleUrl>#msn_info</styleUrl>
            <Point>
                <coordinates>7.153155,44.029629</coordinates>
            </Point>
        </Placemark>

        <Placemark>
            <name>Cagne (partie amont) 2.7</name>
            <description> URL: https://www.descente-canyon.com/canyoning/canyon/252/Cagne-partie-amont.html</description>
            <styleUrl>#msn_info</styleUrl>
            <Point>
                <coordinates>7.071574,43.777409</coordinates>
            </Point>
        </Placemark>

        <Placemark>
            <name>Bass&#xe9;ra 2.1</name>
            <description> URL: https://www.descente-canyon.com/canyoning/canyon/253/Bassera.html</description>
            <styleUrl>#msn_info</styleUrl>
            <Point>
                <coordinates>7.485120,43.897015</coordinates>
            </Point>
        </Placemark>

        <Placemark>
            <name>Guiou 2.4</name>
            <description> URL: https://www.descente-canyon.com/canyoning/canyon/254/Guiou.html</description>
            <styleUrl>#msn_info</styleUrl>
            <Point>
                <coordinates>7.408770,43.895840</coordinates>
            </Point>
        </Placemark>

        <Placemark>
            <name>Roudoule 2.4</name>
            <description> URL: https://www.descente-canyon.com/canyoning/canyon/255/Roudoule.html</description>
            <styleUrl>#msn_info</styleUrl>
            <Point>
                <coordinates>6.870510,43.990009</coordinates>
            </Point>
        </Placemark>

        <Placemark>
            <name>Amen (partie amont) 2.6</name>
            <description> URL: https://www.descente-canyon.com/canyoning/canyon/256/Amen-partie-amont.html</description>
            <styleUrl>#msn_info</styleUrl>
            <Point>
                <coordinates>6.856204,44.056728</coordinates>
            </Point>
        </Placemark>

        <Placemark>
            <name>Siagne de la Pare 2.9</name>
            <description> URL: https://www.descente-canyon.com/canyoning/canyon/257/Siagne-de-la-Pare.html</description>
            <styleUrl>#msn_info</styleUrl>
            <Point>
                <coordinates>6.772604,43.701839</coordinates>
            </Point>
        </Placemark>

        <Placemark>
            <name>Affaia 0.0</name>
            <description> URL: https://www.descente-canyon.com/canyoning/canyon/258/Affaia.html</description>
            <styleUrl>#msn_info</styleUrl>
            <Point>
                <coordinates>7.269580,43.885391</coordinates>
            </Point>
        </Placemark>

        <Placemark>
            <name>Saint Colomban 0.0</name>
            <description> URL: https://www.descente-canyon.com/canyoning/canyon/259/Saint-Colomban.html</description>
            <styleUrl>#msn_info</styleUrl>
            <Point>
                <coordinates>7.320665,43.959549</coordinates>
            </Point>
        </Placemark>

        <Placemark>
            <name>Figaret 0.0</name>
            <description> URL: https://www.descente-canyon.com/canyoning/canyon/260/Figaret.html</description>
            <styleUrl>#msn_info</styleUrl>
            <Point>
                <coordinates>7.263780,43.968552</coordinates>
            </Point>
        </Placemark>

        <Placemark>
            <name>Enaux 0.0</name>
            <description> URL: https://www.descente-canyon.com/canyoning/canyon/261/Enaux.html</description>
            <styleUrl>#msn_info</styleUrl>
            <Point>
                <coordinates>6.789808,44.121235</coordinates>
            </Point>
        </Placemark>

        <Placemark>
            <name>Bevera 0.0</name>
            <description> URL: https://www.descente-canyon.com/canyoning/canyon/262/Bevera.html</description>
            <styleUrl>#msn_info</styleUrl>
            <Point>
                <coordinates>7.504610,43.881340</coordinates>
            </Point>
        </Placemark>

        <Placemark>
            <name>Vegay 0.0</name>
            <description> URL: https://www.descente-canyon.com/canyoning/canyon/263/Vegay.html</description>
            <styleUrl>#msn_info</styleUrl>
            <Point>
                <coordinates>6.924734,43.848701</coordinates>
            </Point>
        </Placemark>

        <Placemark>
            <name>Zouayn&#xe9; 0.0</name>
            <description> URL: https://www.descente-canyon.com/canyoning/canyon/264/Zouayne.html</description>
            <styleUrl>#msn_info</styleUrl>
            <Point>
                <coordinates>7.521150,43.951546</coordinates>
            </Point>
        </Placemark>

        <Placemark>
            <name>Thierry 0.0</name>
            <description> URL: https://www.descente-canyon.com/canyoning/canyon/265/Thierry.html</description>
            <styleUrl>#msn_info</styleUrl>
            <Point>
                <coordinates>7.012584,43.969177</coordinates>
            </Point>
        </Placemark>

        <Placemark>
            <name>Escales 2.4</name>
            <description> URL: https://www.descente-canyon.com/canyoning/canyon/266/Escales.html</description>
            <styleUrl>#msn_info</styleUrl>
            <Point>
                <coordinates>1.549272,42.726837</coordinates>
            </Point>
        </Placemark>

        <Placemark>
            <name>Gnioure 1.5</name>
            <description> URL: https://www.descente-canyon.com/canyoning/canyon/267/Gnioure.html</description>
            <styleUrl>#msn_info</styleUrl>
            <Point>
                <coordinates>1.549722,42.730278</coordinates>
            </Point>
        </Placemark>

        <Placemark>
            <name>Bassi&#xe8;s 0.0</name>
            <description> URL: https://www.descente-canyon.com/canyoning/canyon/268/Bassies.html</description>
            <styleUrl>#msn_info</styleUrl>
            <Point>
                <coordinates>1.463889,42.743057</coordinates>
            </Point>
        </Placemark>

        <Placemark>
            <name>Marc 2.8</name>
            <description> URL: https://www.descente-canyon.com/canyoning/canyon/269/Marc.html</description>
            <styleUrl>#msn_info</styleUrl>
            <Point>
                <coordinates>1.447895,42.716652</coordinates>
            </Point>
        </Placemark>

        <Placemark>
            <name>Capounta 0.0</name>
            <description> URL: https://www.descente-canyon.com/canyoning/canyon/270/Capounta.html</description>
            <styleUrl>#msn_info</styleUrl>
            <Point>
                <coordinates>1.476803,42.758953</coordinates>
            </Point>
        </Placemark>

        <Placemark>
            <name>Fournel 1.8</name>
            <description> URL: https://www.descente-canyon.com/canyoning/canyon/276/Fournel.html</description>
            <styleUrl>#msn_info</styleUrl>
            <Point>
                <coordinates>6.528541,44.788124</coordinates>
            </Point>
        </Placemark>

        <Placemark>
            <name>Angouire 3.1</name>
            <description> URL: https://www.descente-canyon.com/canyoning/canyon/277/Angouire.html</description>
            <styleUrl>#msn_info</styleUrl>
            <Point>
                <coordinates>6.258448,43.831085</coordinates>
            </Point>
        </Placemark>

        <Placemark>
            <name>Riou 3.1</name>
            <description> URL: https://www.descente-canyon.com/canyoning/canyon/278/Riou.html</description>
            <styleUrl>#msn_info</styleUrl>
            <Point>
                <coordinates>6.229125,43.854057</coordinates>
            </Point>
        </Placemark>

        <Placemark>
            <name>V&#xe9;nascle 2.4</name>
            <description> URL: https://www.descente-canyon.com/canyoning/canyon/279/Venascle.html</description>
            <styleUrl>#msn_info</styleUrl>
            <Point>
                <coordinates>6.241720,43.840511</coordinates>
            </Point>
        </Placemark>

        <Placemark>
            <name>Baou 1.5</name>
            <description> URL: https://www.descente-canyon.com/canyoning/canyon/280/Baou.html</description>
            <styleUrl>#msn_info</styleUrl>
            <Point>
                <coordinates>6.357986,43.805763</coordinates>
            </Point>
        </Placemark>

        <Placemark>
            <name>Valboy&#xe8;re 2.3</name>
            <description> URL: https://www.descente-canyon.com/canyoning/canyon/281/Valboyere.html</description>
            <styleUrl>#msn_info</styleUrl>
            <Point>
                <coordinates>6.578982,44.262501</coordinates>
            </Point>
        </Placemark>

        <Placemark>
            <name>Valdemars 2.4</name>
            <description> URL: https://www.descente-canyon.com/canyoning/canyon/282/Valdemars.html</description>
            <styleUrl>#msn_info</styleUrl>
            <Point>
                <coordinates>6.584815,44.258335</coordinates>
            </Point>
        </Placemark>

        <Placemark>
            <name>Gourette 2.4</name>
            <description> URL: https://www.descente-canyon.com/canyoning/canyon/283/Gourette.html</description>
            <styleUrl>#msn_info</styleUrl>
            <Point>
                <coordinates>6.446111,44.428402</coordinates>
            </Point>
        </Placemark>

        <Placemark>
            <name>Enfers 3.1</name>
            <description> URL: https://www.descente-canyon.com/canyoning/canyon/284/Enfers.html</description>
            <styleUrl>#msn_info</styleUrl>
            <Point>
                <coordinates>6.461111,44.415833</coordinates>
            </Point>
        </Placemark>

        <Placemark>
            <name>Gimette 2.5</name>
            <description> URL: https://www.descente-canyon.com/canyoning/canyon/285/Gimette.html</description>
            <styleUrl>#msn_info</styleUrl>
            <Point>
                <coordinates>6.560555,44.381458</coordinates>
            </Point>
        </Placemark>

        <Placemark>
            <name>Four 0.0</name>
            <description> URL: https://www.descente-canyon.com/canyoning/canyon/286/Four.html</description>
            <styleUrl>#msn_info</styleUrl>
            <Point>
                <coordinates>6.613340,44.125412</coordinates>
            </Point>
        </Placemark>

        <Placemark>
            <name>Saint-Pierre 0.0</name>
            <description> URL: https://www.descente-canyon.com/canyoning/canyon/287/Saint-Pierre.html</description>
            <styleUrl>#msn_info</styleUrl>
            <Point>
                <coordinates>6.620546,44.123814</coordinates>
            </Point>
        </Placemark>

        <Placemark>
            <name>Cordoeil 0.0</name>
            <description> URL: https://www.descente-canyon.com/canyoning/canyon/288/Cordoeil.html</description>
            <styleUrl>#msn_info</styleUrl>
            <Point>
                <coordinates>6.519613,44.069118</coordinates>
            </Point>
        </Placemark>

        <Placemark>
            <name>Mayreste 0.0</name>
            <description> URL: https://www.descente-canyon.com/canyoning/canyon/290/Mayreste.html</description>
            <styleUrl>#msn_info</styleUrl>
            <Point>
                <coordinates>6.278236,43.777870</coordinates>
            </Point>
        </Placemark>

        <Placemark>
            <name>Praoux 0.0</name>
            <description> URL: https://www.descente-canyon.com/canyoning/canyon/291/Praoux.html</description>
            <styleUrl>#msn_info</styleUrl>
            <Point>
                <coordinates>6.359324,43.829109</coordinates>
            </Point>
        </Placemark>

        <Placemark>
            <name>Saint-Andr&#xe9; 0.0</name>
            <description> URL: https://www.descente-canyon.com/canyoning/canyon/292/Saint-Andre.html</description>
            <styleUrl>#msn_info</styleUrl>
            <Point>
                <coordinates>6.284014,44.306877</coordinates>
            </Point>
        </Placemark>

        <Placemark>
            <name>Estoublaisse 0.0</name>
            <description> URL: https://www.descente-canyon.com/canyoning/canyon/293/Estoublaisse.html</description>
            <styleUrl>#msn_info</styleUrl>
            <Point>
                <coordinates>6.264224,43.919411</coordinates>
            </Point>
        </Placemark>

        <Placemark>
            <name>Riou de la favi&#xe8;re 0.0</name>
            <description> URL: https://www.descente-canyon.com/canyoning/canyon/294/Riou-de-la-faviere.html</description>
            <styleUrl>#msn_info</styleUrl>
            <Point>
                <coordinates>6.487319,44.220585</coordinates>
            </Point>
        </Placemark>

        <Placemark>
            <name>Jets des eaux 0.0</name>
            <description> URL: https://www.descente-canyon.com/canyoning/canyon/295/Jets-des-eaux.html</description>
            <styleUrl>#msn_info</styleUrl>
            <Point>
                <coordinates>6.526700,44.209427</coordinates>
            </Point>
        </Placemark>

        <Placemark>
            <name>Melle 0.0</name>
            <description> URL: https://www.descente-canyon.com/canyoning/canyon/297/Melle.html</description>
            <styleUrl>#msn_info</styleUrl>
            <Point>
                <coordinates>6.347297,43.915585</coordinates>
            </Point>
        </Placemark>

        <Placemark>
            <name>Palluel 0.0</name>
            <description> URL: https://www.descente-canyon.com/canyoning/canyon/299/Palluel.html</description>
            <styleUrl>#msn_info</styleUrl>
            <Point>
                <coordinates>6.606646,44.309910</coordinates>
            </Point>
        </Placemark>

        <Placemark>
            <name>Blanche 0.0</name>
            <description> URL: https://www.descente-canyon.com/canyoning/canyon/2101/Blanche.html</description>
            <styleUrl>#msn_info</styleUrl>
            <Point>
                <coordinates>6.243333,44.447224</coordinates>
            </Point>
        </Placemark>

        <Placemark>
            <name>Taulanne 0.0</name>
            <description> URL: https://www.descente-canyon.com/canyoning/canyon/2102/Taulanne.html</description>
            <styleUrl>#msn_info</styleUrl>
            <Point>
                <coordinates>6.439236,43.880356</coordinates>
            </Point>
        </Placemark>

        <Placemark>
            <name>Pas de l&apos;Escale 0.0</name>
            <description> URL: https://www.descente-canyon.com/canyoning/canyon/2103/Pas-de-l-Escale.html</description>
            <styleUrl>#msn_info</styleUrl>
            <Point>
                <coordinates>6.259675,43.953251</coordinates>
            </Point>
        </Placemark>

        <Placemark>
            <name>Bramefan 2.4</name>
            <description> URL: https://www.descente-canyon.com/canyoning/canyon/2104/Bramefan.html</description>
            <styleUrl>#msn_info</styleUrl>
            <Point>
                <coordinates>6.161204,44.198982</coordinates>
            </Point>
        </Placemark>

        <Placemark>
            <name>Clue 1.9</name>
            <description> URL: https://www.descente-canyon.com/canyoning/canyon/2105/Clue.html</description>
            <styleUrl>#msn_info</styleUrl>
            <Point>
                <coordinates>6.345116,43.877670</coordinates>
            </Point>
        </Placemark>

        <Placemark>
            <name>Bedejun 1.8</name>
            <description> URL: https://www.descente-canyon.com/canyoning/canyon/2106/Bedejun.html</description>
            <styleUrl>#msn_info</styleUrl>
            <Point>
                <coordinates>6.285093,44.030647</coordinates>
            </Point>
        </Placemark>

        <Placemark>
            <name>Saint-Jean 2.5</name>
            <description> URL: https://www.descente-canyon.com/canyoning/canyon/2107/Saint-Jean.html</description>
            <styleUrl>#msn_info</styleUrl>
            <Point>
                <coordinates>6.699318,43.939320</coordinates>
            </Point>
        </Placemark>

        <Placemark>
            <name>Haut-Verdon 2.7</name>
            <description> URL: https://www.descente-canyon.com/canyoning/canyon/2109/Haut-Verdon.html</description>
            <styleUrl>#msn_info</styleUrl>
            <Point>
                <coordinates>6.579187,44.271374</coordinates>
            </Point>
        </Placemark>

        <Placemark>
            <name>Bouchier 2.3</name>
            <description> URL: https://www.descente-canyon.com/canyoning/canyon/2110/Bouchier.html</description>
            <styleUrl>#msn_info</styleUrl>
            <Point>
                <coordinates>6.434963,44.434792</coordinates>
            </Point>
        </Placemark>

        <Placemark>
            <name>Bal&#xe8;ne 1.9</name>
            <description> URL: https://www.descente-canyon.com/canyoning/canyon/2111/Balene.html</description>
            <styleUrl>#msn_info</styleUrl>
            <Point>
                <coordinates>6.206381,43.880013</coordinates>
            </Point>
        </Placemark>

        <Placemark>
            <name>Infernet 3.3</name>
            <description> URL: https://www.descente-canyon.com/canyoning/canyon/2113/Infernet.html</description>
            <styleUrl>#msn_info</styleUrl>
            <Point>
                <coordinates>5.711900,45.250801</coordinates>
            </Point>
        </Placemark>

        <Placemark>
            <name>Chailles 2.8</name>
            <description> URL: https://www.descente-canyon.com/canyoning/canyon/2114/Chailles.html</description>
            <styleUrl>#msn_info</styleUrl>
            <Point>
                <coordinates>5.725113,45.481167</coordinates>
            </Point>
        </Placemark>

        <Placemark>
            <name>Gorgette et Craponoz 3.2</name>
            <description> URL: https://www.descente-canyon.com/canyoning/canyon/2115/Gorgette-et-Craponoz.html</description>
            <styleUrl>#msn_info</styleUrl>
            <Point>
                <coordinates>5.853600,45.280602</coordinates>
            </Point>
        </Placemark>

        <Placemark>
            <name>Alloix 2.8</name>
            <description> URL: https://www.descente-canyon.com/canyoning/canyon/2116/Alloix.html</description>
            <styleUrl>#msn_info</styleUrl>
            <Point>
                <coordinates>5.945944,45.389999</coordinates>
            </Point>
        </Placemark>

        <Placemark>
            <name>Grenant 2.7</name>
            <description> URL: https://www.descente-canyon.com/canyoning/canyon/2117/Grenant.html</description>
            <styleUrl>#msn_info</styleUrl>
            <Point>
                <coordinates>5.758889,45.523609</coordinates>
            </Point>
        </Placemark>

        <Placemark>
            <name>Vorz 2.0</name>
            <description> URL: https://www.descente-canyon.com/canyoning/canyon/2118/Vorz.html</description>
            <styleUrl>#msn_info</styleUrl>
            <Point>
                <coordinates>5.906389,45.239582</coordinates>
            </Point>
        </Placemark>

        <Placemark>
            <name>Doria 2.3</name>
            <description> URL: https://www.descente-canyon.com/canyoning/canyon/2119/Doria.html</description>
            <styleUrl>#msn_info</styleUrl>
            <Point>
                <coordinates>5.976523,45.586277</coordinates>
            </Point>
        </Placemark>

        <Placemark>
            <name>Tailles 2.5</name>
            <description> URL: https://www.descente-canyon.com/canyoning/canyon/2120/Tailles.html</description>
            <styleUrl>#msn_info</styleUrl>
            <Point>
                <coordinates>6.273916,45.639194</coordinates>
            </Point>
        </Placemark>

        <Placemark>
            <name>Leysse 2.2</name>
            <description> URL: https://www.descente-canyon.com/canyoning/canyon/2126/Leysse.html</description>
            <styleUrl>#msn_info</styleUrl>
            <Point>
                <coordinates>6.015370,45.615650</coordinates>
            </Point>
        </Placemark>

        <Placemark>
            <name>Pont du Diable 3.2</name>
            <description> URL: https://www.descente-canyon.com/canyoning/canyon/2127/Pont-du-Diable.html</description>
            <styleUrl>#msn_info</styleUrl>
            <Point>
                <coordinates>6.108852,45.728325</coordinates>
            </Point>
        </Placemark>

        <Placemark>
            <name>Reposoir 2.4</name>
            <description> URL: https://www.descente-canyon.com/canyoning/canyon/2128/Reposoir.html</description>
            <styleUrl>#msn_info</styleUrl>
            <Point>
                <coordinates>6.171492,45.728580</coordinates>
            </Point>
        </Placemark>

        <Placemark>
            <name>Tern&#xe8;ze 2.7</name>
            <description> URL: https://www.descente-canyon.com/canyoning/canyon/2129/Terneze.html</description>
            <styleUrl>#msn_info</styleUrl>
            <Point>
                <coordinates>6.023889,45.560280</coordinates>
            </Point>
        </Placemark>

        <Placemark>
            <name>Pussy (1&#xe8;re partie) 2.5</name>
            <description> URL: https://www.descente-canyon.com/canyoning/canyon/2130/Pussy-1ere-partie.html</description>
            <styleUrl>#msn_info</styleUrl>
            <Point>
                <coordinates>6.458703,45.550087</coordinates>
            </Point>
        </Placemark>

        <Placemark>
            <name>Pussy (2&#xe8;me partie) 0.0</name>
            <description> URL: https://www.descente-canyon.com/canyoning/canyon/2131/Pussy-2eme-partie.html</description>
            <styleUrl>#msn_info</styleUrl>
            <Point>
                <coordinates>6.463724,45.548958</coordinates>
            </Point>
        </Placemark>

        <Placemark>
            <name>B&#xe9;n&#xe9;tant 2.5</name>
            <description> URL: https://www.descente-canyon.com/canyoning/canyon/2132/Benetant.html</description>
            <styleUrl>#msn_info</styleUrl>
            <Point>
                <coordinates>6.456945,45.618427</coordinates>
            </Point>
        </Placemark>

        <Placemark>
            <name>C&#xf4;te Lancelin 2.6</name>
            <description> URL: https://www.descente-canyon.com/canyoning/canyon/2133/Cote-Lancelin.html</description>
            <styleUrl>#msn_info</styleUrl>
            <Point>
                <coordinates>6.609063,45.531704</coordinates>
            </Point>
        </Placemark>

        <Placemark>
            <name>Rio Sourd 2.6</name>
            <description> URL: https://www.descente-canyon.com/canyoning/canyon/2134/Rio-Sourd.html</description>
            <styleUrl>#msn_info</styleUrl>
            <Point>
                <coordinates>5.566227,44.685505</coordinates>
            </Point>
        </Placemark>

        <Placemark>
            <name>Rio La For&#xea;t 1.5</name>
            <description> URL: https://www.descente-canyon.com/canyoning/canyon/2135/Rio-La-Foret.html</description>
            <styleUrl>#msn_info</styleUrl>
            <Point>
                <coordinates>5.575291,44.688568</coordinates>
            </Point>
        </Placemark>

        <Placemark>
            <name>Angon 3.0</name>
            <description> URL: https://www.descente-canyon.com/canyoning/canyon/2136/Angon.html</description>
            <styleUrl>#msn_info</styleUrl>
            <Point>
                <coordinates>6.226183,45.831547</coordinates>
            </Point>
        </Placemark>

        <Placemark>
            <name>Belle au Bois 2.7</name>
            <description> URL: https://www.descente-canyon.com/canyoning/canyon/2137/Belle-au-Bois.html</description>
            <styleUrl>#msn_info</styleUrl>
            <Point>
                <coordinates>6.632892,45.848026</coordinates>
            </Point>
        </Placemark>

        <Placemark>
            <name>Bellevaux 2.2</name>
            <description> URL: https://www.descente-canyon.com/canyoning/canyon/2138/Bellevaux.html</description>
            <styleUrl>#msn_info</styleUrl>
            <Point>
                <coordinates>6.530945,46.252117</coordinates>
            </Point>
        </Placemark>

        <Placemark>
            <name>Cr&#xe8;ve Coeur 2.8</name>
            <description> URL: https://www.descente-canyon.com/canyoning/canyon/2139/Creve-Coeur.html</description>
            <styleUrl>#msn_info</styleUrl>
            <Point>
                <coordinates>6.655102,45.961678</coordinates>
            </Point>
        </Placemark>

        <Placemark>
            <name>Frontenex 2.3</name>
            <description> URL: https://www.descente-canyon.com/canyoning/canyon/2140/Frontenex.html</description>
            <styleUrl>#msn_info</styleUrl>
            <Point>
                <coordinates>6.311111,45.728611</coordinates>
            </Point>
        </Placemark>

        <Placemark>
            <name>Mine 2.8</name>
            <description> URL: https://www.descente-canyon.com/canyoning/canyon/2141/Mine.html</description>
            <styleUrl>#msn_info</styleUrl>
            <Point>
                <coordinates>6.191486,45.766293</coordinates>
            </Point>
        </Placemark>

        <Placemark>
            <name>Montmin 2.6</name>
            <description> URL: https://www.descente-canyon.com/canyoning/canyon/2142/Montmin.html</description>
            <styleUrl>#msn_info</styleUrl>
            <Point>
                <coordinates>6.260556,45.776482</coordinates>
            </Point>
        </Placemark>

        <Placemark>
            <name>Morette 2.1</name>
            <description> URL: https://www.descente-canyon.com/canyoning/canyon/2143/Morette.html</description>
            <styleUrl>#msn_info</styleUrl>
            <Point>
                <coordinates>6.286944,45.901203</coordinates>
            </Point>
        </Placemark>

        <Placemark>
            <name>Reninge 2.5</name>
            <description> URL: https://www.descente-canyon.com/canyoning/canyon/2144/Reninge.html</description>
            <styleUrl>#msn_info</styleUrl>
            <Point>
                <coordinates>6.652500,45.943054</coordinates>
            </Point>
        </Placemark>

        <Placemark>
            <name>Rots de Balme 2.5</name>
            <description> URL: https://www.descente-canyon.com/canyoning/canyon/2145/Rots-de-Balme.html</description>
            <styleUrl>#msn_info</styleUrl>
            <Point>
                <coordinates>6.614211,46.047527</coordinates>
            </Point>
        </Placemark>

        <Placemark>
            <name>Vogealle 3.3</name>
            <description> URL: https://www.descente-canyon.com/canyoning/canyon/2146/Vogealle.html</description>
            <styleUrl>#msn_info</styleUrl>
            <Point>
                <coordinates>6.841305,46.090763</coordinates>
            </Point>
        </Placemark>

        <Placemark>
            <name>Berth&#xe9;ou 1.5</name>
            <description> URL: https://www.descente-canyon.com/canyoning/canyon/2150/Bertheou.html</description>
            <styleUrl>#msn_info</styleUrl>
            <Point>
                <coordinates>6.832859,44.041576</coordinates>
            </Point>
        </Placemark>

        <Placemark>
            <name>Cramassouri 2.9</name>
            <description> URL: https://www.descente-canyon.com/canyoning/canyon/2151/Cramassouri.html</description>
            <styleUrl>#msn_info</styleUrl>
            <Point>
                <coordinates>7.176552,43.935459</coordinates>
            </Point>
        </Placemark>

        <Placemark>
            <name>Chaudan 2.7</name>
            <description> URL: https://www.descente-canyon.com/canyoning/canyon/2152/Chaudan.html</description>
            <styleUrl>#msn_info</styleUrl>
            <Point>
                <coordinates>6.743007,44.182240</coordinates>
            </Point>
        </Placemark>

        <Placemark>
            <name>Challandre 2.8</name>
            <description> URL: https://www.descente-canyon.com/canyoning/canyon/2153/Challandre.html</description>
            <styleUrl>#msn_info</styleUrl>
            <Point>
                <coordinates>6.973235,44.058327</coordinates>
            </Point>
        </Placemark>

        <Placemark>
            <name>Louch 3.1</name>
            <description> URL: https://www.descente-canyon.com/canyoning/canyon/2154/Louch.html</description>
            <styleUrl>#msn_info</styleUrl>
            <Point>
                <coordinates>7.048204,44.183945</coordinates>
            </Point>
        </Placemark>

        <Placemark>
            <name>Cerise 2.3</name>
            <description> URL: https://www.descente-canyon.com/canyoning/canyon/2155/Cerise.html</description>
            <styleUrl>#msn_info</styleUrl>
            <Point>
                <coordinates>7.130476,43.852680</coordinates>
            </Point>
        </Placemark>

        <Placemark>
            <name>Ray 2.4</name>
            <description> URL: https://www.descente-canyon.com/canyoning/canyon/2156/Ray.html</description>
            <styleUrl>#msn_info</styleUrl>
            <Point>
                <coordinates>6.920556,43.788334</coordinates>
            </Point>
        </Placemark>

        <Placemark>
            <name>Pierrefeu 2.5</name>
            <description> URL: https://www.descente-canyon.com/canyoning/canyon/2157/Pierrefeu.html</description>
            <styleUrl>#msn_info</styleUrl>
            <Point>
                <coordinates>7.083875,43.866177</coordinates>
            </Point>
        </Placemark>

        <Placemark>
            <name>Mujouls 2.5</name>
            <description> URL: https://www.descente-canyon.com/canyoning/canyon/2158/Mujouls.html</description>
            <styleUrl>#msn_info</styleUrl>
            <Point>
                <coordinates>6.851180,43.874638</coordinates>
            </Point>
        </Placemark>

        <Placemark>
            <name>Tapoul 2.8</name>
            <description> URL: https://www.descente-canyon.com/canyoning/canyon/2159/Tapoul.html</description>
            <styleUrl>#msn_info</styleUrl>
            <Point>
                <coordinates>3.581743,44.191063</coordinates>
            </Point>
        </Placemark>

        <Placemark>
            <name>Bonheur - Bramabiau 2.2</name>
            <description> URL: https://www.descente-canyon.com/canyoning/canyon/2160/Bonheur---Bramabiau.html</description>
            <styleUrl>#msn_info</styleUrl>
            <Point>
                <coordinates>3.440278,44.112499</coordinates>
            </Point>
        </Placemark>

        <Placemark>
            <name>Haute Dourbie 2.0</name>
            <description> URL: https://www.descente-canyon.com/canyoning/canyon/2161/Haute-Dourbie.html</description>
            <styleUrl>#msn_info</styleUrl>
            <Point>
                <coordinates>3.430555,44.064556</coordinates>
            </Point>
        </Placemark>

        <Placemark>
            <name>Tayrac 1.4</name>
            <description> URL: https://www.descente-canyon.com/canyoning/canyon/2162/Tayrac.html</description>
            <styleUrl>#msn_info</styleUrl>
            <Point>
                <coordinates>3.389694,44.037563</coordinates>
            </Point>
        </Placemark>

        <Placemark>
            <name>Biez des Cruies 2.4</name>
            <description> URL: https://www.descente-canyon.com/canyoning/canyon/2163/Biez-des-Cruies.html</description>
            <styleUrl>#msn_info</styleUrl>
            <Point>
                <coordinates>5.590525,45.805946</coordinates>
            </Point>
        </Placemark>

        <Placemark>
            <name>Borne au Lion 2.4</name>
            <description> URL: https://www.descente-canyon.com/canyoning/canyon/2164/Borne-au-Lion.html</description>
            <styleUrl>#msn_info</styleUrl>
            <Point>
                <coordinates>5.883611,46.245277</coordinates>
            </Point>
        </Placemark>

        <Placemark>
            <name>Brive 1.8</name>
            <description> URL: https://www.descente-canyon.com/canyoning/canyon/2166/Brive.html</description>
            <styleUrl>#msn_info</styleUrl>
            <Point>
                <coordinates>5.533344,45.787006</coordinates>
            </Point>
        </Placemark>

        <Placemark>
            <name>Buizin 2.3</name>
            <description> URL: https://www.descente-canyon.com/canyoning/canyon/2168/Buizin.html</description>
            <styleUrl>#msn_info</styleUrl>
            <Point>
                <coordinates>5.381111,45.903610</coordinates>
            </Point>
        </Placemark>

        <Placemark>
            <name>Chaley 2.7</name>
            <description> URL: https://www.descente-canyon.com/canyoning/canyon/2169/Chaley.html</description>
            <styleUrl>#msn_info</styleUrl>
            <Point>
                <coordinates>5.528040,45.955807</coordinates>
            </Point>
        </Placemark>

        <Placemark>
            <name>Charabotte 1.7</name>
            <description> URL: https://www.descente-canyon.com/canyoning/canyon/2170/Charabotte.html</description>
            <styleUrl>#msn_info</styleUrl>
            <Point>
                <coordinates>5.562534,45.962826</coordinates>
            </Point>
        </Placemark>

        <Placemark>
            <name>Combe Buffi&#xe8;re 0.7</name>
            <description> URL: https://www.descente-canyon.com/canyoning/canyon/2171/Combe-Buffiere.html</description>
            <styleUrl>#msn_info</styleUrl>
            <Point>
                <coordinates>5.474787,46.051266</coordinates>
            </Point>
        </Placemark>

        <Placemark>
            <name>Bief &#xe0; la Dame 0.8</name>
            <description> URL: https://www.descente-canyon.com/canyoning/canyon/2172/Bief-a-la-Dame.html</description>
            <styleUrl>#msn_info</styleUrl>
            <Point>
                <coordinates>5.691903,46.153080</coordinates>
            </Point>
        </Placemark>

        <Placemark>
            <name>Faterieu 1.5</name>
            <description> URL: https://www.descente-canyon.com/canyoning/canyon/2173/Faterieu.html</description>
            <styleUrl>#msn_info</styleUrl>
            <Point>
                <coordinates>5.625837,45.855717</coordinates>
            </Point>
        </Placemark>

        <Placemark>
            <name>Fouge 2.8</name>
            <description> URL: https://www.descente-canyon.com/canyoning/canyon/2174/Fouge.html</description>
            <styleUrl>#msn_info</styleUrl>
            <Point>
                <coordinates>5.478796,46.057964</coordinates>
            </Point>
        </Placemark>

        <Placemark>
            <name>Groin 3.3</name>
            <description> URL: https://www.descente-canyon.com/canyoning/canyon/2175/Groin.html</description>
            <styleUrl>#msn_info</styleUrl>
            <Point>
                <coordinates>5.688931,45.881153</coordinates>
            </Point>
        </Placemark>

        <Placemark>
            <name>Luizet 2.1</name>
            <description> URL: https://www.descente-canyon.com/canyoning/canyon/2176/Luizet.html</description>
            <styleUrl>#msn_info</styleUrl>
            <Point>
                <coordinates>5.503892,45.837769</coordinates>
            </Point>
        </Placemark>

        <Placemark>
            <name>Monts d&apos;Eau 1.0</name>
            <description> URL: https://www.descente-canyon.com/canyoning/canyon/2177/Monts-d-Eau.html</description>
            <styleUrl>#msn_info</styleUrl>
            <Point>
                <coordinates>5.614078,46.308239</coordinates>
            </Point>
        </Placemark>

        <Placemark>
            <name>Noire Fontaine 1.4</name>
            <description> URL: https://www.descente-canyon.com/canyoning/canyon/2178/Noire-Fontaine.html</description>
            <styleUrl>#msn_info</styleUrl>
            <Point>
                <coordinates>5.454290,46.142353</coordinates>
            </Point>
        </Placemark>

        <Placemark>
            <name>Pointay 1.3</name>
            <description> URL: https://www.descente-canyon.com/canyoning/canyon/2179/Pointay.html</description>
            <styleUrl>#msn_info</styleUrl>
            <Point>
                <coordinates>5.588125,45.840359</coordinates>
            </Point>
        </Placemark>

        <Placemark>
            <name>Sandezanne 2.2</name>
            <description> URL: https://www.descente-canyon.com/canyoning/canyon/2180/Sandezanne.html</description>
            <styleUrl>#msn_info</styleUrl>
            <Point>
                <coordinates>5.810833,46.167500</coordinates>
            </Point>
        </Placemark>

        <Placemark>
            <name>S&#xe9;mine (amont) 2.6</name>
            <description> URL: https://www.descente-canyon.com/canyoning/canyon/2181/Semine-amont.html</description>
            <styleUrl>#msn_info</styleUrl>
            <Point>
                <coordinates>5.824236,46.247498</coordinates>
            </Point>
        </Placemark>

        <Placemark>
            <name>S&#xe9;mine (aval) 2.3</name>
            <description> URL: https://www.descente-canyon.com/canyoning/canyon/2182/Semine-aval.html</description>
            <styleUrl>#msn_info</styleUrl>
            <Point>
                <coordinates>5.787014,46.245071</coordinates>
            </Point>
        </Placemark>

        <Placemark>
            <name>S&#xe9;mine [Marmites de la] 1.3</name>
            <description> URL: https://www.descente-canyon.com/canyoning/canyon/2183/Semine-Marmites-de-la.html</description>
            <styleUrl>#msn_info</styleUrl>
            <Point>
                <coordinates>5.738318,46.182384</coordinates>
            </Point>
        </Placemark>

        <Placemark>
            <name>Cerveyrieu 2.7</name>
            <description> URL: https://www.descente-canyon.com/canyoning/canyon/2184/Cerveyrieu.html</description>
            <styleUrl>#msn_info</styleUrl>
            <Point>
                <coordinates>5.678129,45.880478</coordinates>
            </Point>
        </Placemark>

        <Placemark>
            <name>Trou de la Marmite 1.4</name>
            <description> URL: https://www.descente-canyon.com/canyoning/canyon/2185/Trou-de-la-Marmite.html</description>
            <styleUrl>#msn_info</styleUrl>
            <Point>
                <coordinates>5.622244,45.967312</coordinates>
            </Point>
        </Placemark>

        <Placemark>
            <name>Valouse 2.5</name>
            <description> URL: https://www.descente-canyon.com/canyoning/canyon/2186/Valouse.html</description>
            <styleUrl>#msn_info</styleUrl>
            <Point>
                <coordinates>5.538547,45.869427</coordinates>
            </Point>
        </Placemark>

        <Placemark>
            <name>Landeron 1.2</name>
            <description> URL: https://www.descente-canyon.com/canyoning/canyon/2187/Landeron.html</description>
            <styleUrl>#msn_info</styleUrl>
            <Point>
                <coordinates>5.586634,46.173618</coordinates>
            </Point>
        </Placemark>

        <Placemark>
            <name>Nant d&apos;Enfer 0.0</name>
            <description> URL: https://www.descente-canyon.com/canyoning/canyon/2188/Nant-d-Enfer.html</description>
            <styleUrl>#msn_info</styleUrl>
            <Point>
                <coordinates>5.769067,46.210102</coordinates>
            </Point>
        </Placemark>

        <Placemark>
            <name>Ochons 0.4</name>
            <description> URL: https://www.descente-canyon.com/canyoning/canyon/2189/Ochons.html</description>
            <styleUrl>#msn_info</styleUrl>
            <Point>
                <coordinates>5.760278,46.229443</coordinates>
            </Point>
        </Placemark>

        <Placemark>
            <name>Farnets 1.3</name>
            <description> URL: https://www.descente-canyon.com/canyoning/canyon/2190/Farnets.html</description>
            <styleUrl>#msn_info</styleUrl>
            <Point>
                <coordinates>6.200000,45.673332</coordinates>
            </Point>
        </Placemark>

        <Placemark>
            <name>Pissevieille 2.9</name>
            <description> URL: https://www.descente-canyon.com/canyoning/canyon/2191/Pissevieille.html</description>
            <styleUrl>#msn_info</styleUrl>
            <Point>
                <coordinates>5.891812,46.454178</coordinates>
            </Point>
        </Placemark>

        <Placemark>
            <name>Bleni&#xe8;re 2.5</name>
            <description> URL: https://www.descente-canyon.com/canyoning/canyon/2192/Bleniere.html</description>
            <styleUrl>#msn_info</styleUrl>
            <Point>
                <coordinates>5.864112,46.419426</coordinates>
            </Point>
        </Placemark>

        <Placemark>
            <name>Ab&#xee;me 0.0</name>
            <description> URL: https://www.descente-canyon.com/canyoning/canyon/2193/Abime.html</description>
            <styleUrl>#msn_info</styleUrl>
            <Point>
                <coordinates>5.878748,46.402687</coordinates>
            </Point>
        </Placemark>

        <Placemark>
            <name>Grosdar (inf&#xe9;rieur) 2.8</name>
            <description> URL: https://www.descente-canyon.com/canyoning/canyon/2194/Grosdar-inferieur.html</description>
            <styleUrl>#msn_info</styleUrl>
            <Point>
                <coordinates>5.886867,46.383099</coordinates>
            </Point>
        </Placemark>

        <Placemark>
            <name>Flumen 2.5</name>
            <description> URL: https://www.descente-canyon.com/canyoning/canyon/2195/Flumen.html</description>
            <styleUrl>#msn_info</styleUrl>
            <Point>
                <coordinates>5.892972,46.358662</coordinates>
            </Point>
        </Placemark>

        <Placemark>
            <name>Parres 2.4</name>
            <description> URL: https://www.descente-canyon.com/canyoning/canyon/2196/Parres.html</description>
            <styleUrl>#msn_info</styleUrl>
            <Point>
                <coordinates>5.878733,46.364265</coordinates>
            </Point>
        </Placemark>

        <Placemark>
            <name>Coiserette 3.2</name>
            <description> URL: https://www.descente-canyon.com/canyoning/canyon/2197/Coiserette.html</description>
            <styleUrl>#msn_info</styleUrl>
            <Point>
                <coordinates>5.837255,46.346130</coordinates>
            </Point>
        </Placemark>

        <Placemark>
            <name>Pr&#xe9;v&#xe9;rant 1.9</name>
            <description> URL: https://www.descente-canyon.com/canyoning/canyon/2198/Preverant.html</description>
            <styleUrl>#msn_info</styleUrl>
            <Point>
                <coordinates>5.755365,46.299374</coordinates>
            </Point>
        </Placemark>

        <Placemark>
            <name>Gorges 2.3</name>
            <description> URL: https://www.descente-canyon.com/canyoning/canyon/2199/Gorges.html</description>
            <styleUrl>#msn_info</styleUrl>
            <Point>
                <coordinates>5.736307,46.352341</coordinates>
            </Point>
        </Placemark>

        <Placemark>
            <name>Bief de la Goulette 2.3</name>
            <description> URL: https://www.descente-canyon.com/canyoning/canyon/2200/Bief-de-la-Goulette.html</description>
            <styleUrl>#msn_info</styleUrl>
            <Point>
                <coordinates>5.692776,46.360622</coordinates>
            </Point>
        </Placemark>

        <Placemark>
            <name>Langouette 0.0</name>
            <description> URL: https://www.descente-canyon.com/canyoning/canyon/2201/Langouette.html</description>
            <styleUrl>#msn_info</styleUrl>
            <Point>
                <coordinates>6.006520,46.654594</coordinates>
            </Point>
        </Placemark>

        <Placemark>
            <name>Ruine 1.5</name>
            <description> URL: https://www.descente-canyon.com/canyoning/canyon/2202/Ruine.html</description>
            <styleUrl>#msn_info</styleUrl>
            <Point>
                <coordinates>6.029628,46.640530</coordinates>
            </Point>
        </Placemark>

        <Placemark>
            <name>Malvaux 2.2</name>
            <description> URL: https://www.descente-canyon.com/canyoning/canyon/2203/Malvaux.html</description>
            <styleUrl>#msn_info</styleUrl>
            <Point>
                <coordinates>6.029628,46.640530</coordinates>
            </Point>
        </Placemark>

        <Placemark>
            <name>H&#xe9;risson 2.2</name>
            <description> URL: https://www.descente-canyon.com/canyoning/canyon/2204/Herisson.html</description>
            <styleUrl>#msn_info</styleUrl>
            <Point>
                <coordinates>5.847570,46.614586</coordinates>
            </Point>
        </Placemark>

        <Placemark>
            <name>Cimante 0.7</name>
            <description> URL: https://www.descente-canyon.com/canyoning/canyon/2205/Cimante.html</description>
            <styleUrl>#msn_info</styleUrl>
            <Point>
                <coordinates>5.739638,46.503757</coordinates>
            </Point>
        </Placemark>

        <Placemark>
            <name>P&#xe8;le 1.8</name>
            <description> URL: https://www.descente-canyon.com/canyoning/canyon/2206/Pele.html</description>
            <styleUrl>#msn_info</styleUrl>
            <Point>
                <coordinates>5.654740,46.441093</coordinates>
            </Point>
        </Placemark>

        <Placemark>
            <name>Dard 1.5</name>
            <description> URL: https://www.descente-canyon.com/canyoning/canyon/2208/Dard.html</description>
            <styleUrl>#msn_info</styleUrl>
            <Point>
                <coordinates>5.773487,46.495731</coordinates>
            </Point>
        </Placemark>

        <Placemark>
            <name>Moulin de la Burne 1.3</name>
            <description> URL: https://www.descente-canyon.com/canyoning/canyon/2209/Moulin-de-la-Burne.html</description>
            <styleUrl>#msn_info</styleUrl>
            <Point>
                <coordinates>5.818087,46.304516</coordinates>
            </Point>
        </Placemark>

        <Placemark>
            <name>Moulin de Vulvoz 2.5</name>
            <description> URL: https://www.descente-canyon.com/canyoning/canyon/2210/Moulin-de-Vulvoz.html</description>
            <styleUrl>#msn_info</styleUrl>
            <Point>
                <coordinates>5.778358,46.325554</coordinates>
            </Point>
        </Placemark>

        <Placemark>
            <name>Merdanson 0.7</name>
            <description> URL: https://www.descente-canyon.com/canyoning/canyon/2211/Merdanson.html</description>
            <styleUrl>#msn_info</styleUrl>
            <Point>
                <coordinates>5.659445,46.318241</coordinates>
            </Point>
        </Placemark>

        <Placemark>
            <name>Haut Chassezac 0.0</name>
            <description> URL: https://www.descente-canyon.com/canyoning/canyon/2212/Haut-Chassezac.html</description>
            <styleUrl>#msn_info</styleUrl>
            <Point>
                <coordinates>3.940186,44.486343</coordinates>
            </Point>
        </Placemark>

        <Placemark>
            <name>Pissevieille 2.7</name>
            <description> URL: https://www.descente-canyon.com/canyoning/canyon/2213/Pissevieille.html</description>
            <styleUrl>#msn_info</styleUrl>
            <Point>
                <coordinates>4.454260,44.387684</coordinates>
            </Point>
        </Placemark>

        <Placemark>
            <name>Gourdouze 1.8</name>
            <description> URL: https://www.descente-canyon.com/canyoning/canyon/2214/Gourdouze.html</description>
            <styleUrl>#msn_info</styleUrl>
            <Point>
                <coordinates>3.882337,44.357059</coordinates>
            </Point>
        </Placemark>

        <Placemark>
            <name>Gardon d&apos;Al&#xe8;s 1.2</name>
            <description> URL: https://www.descente-canyon.com/canyoning/canyon/2215/Gardon-d-Ales.html</description>
            <styleUrl>#msn_info</styleUrl>
            <Point>
                <coordinates>3.869956,44.266376</coordinates>
            </Point>
        </Placemark>

        <Placemark>
            <name>Rochebonne 2.3</name>
            <description> URL: https://www.descente-canyon.com/canyoning/canyon/2216/Rochebonne.html</description>
            <styleUrl>#msn_info</styleUrl>
            <Point>
                <coordinates>4.403863,44.945518</coordinates>
            </Point>
        </Placemark>

        <Placemark>
            <name>Turzon 0.0</name>
            <description> URL: https://www.descente-canyon.com/canyoning/canyon/2217/Turzon.html</description>
            <styleUrl>#msn_info</styleUrl>
            <Point>
                <coordinates>4.802503,44.854328</coordinates>
            </Point>
        </Placemark>

        <Placemark>
            <name>Haute-Besorgue 1.8</name>
            <description> URL: https://www.descente-canyon.com/canyoning/canyon/2218/Haute-Besorgue.html</description>
            <styleUrl>#msn_info</styleUrl>
            <Point>
                <coordinates>4.291833,44.757500</coordinates>
            </Point>
        </Placemark>

        <Placemark>
            <name>Roujanel 2.7</name>
            <description> URL: https://www.descente-canyon.com/canyoning/canyon/2219/Roujanel.html</description>
            <styleUrl>#msn_info</styleUrl>
            <Point>
                <coordinates>3.954569,44.537022</coordinates>
            </Point>
        </Placemark>

        <Placemark>
            <name>Fustug&#xe8;re 2.6</name>
            <description> URL: https://www.descente-canyon.com/canyoning/canyon/2220/Fustugere.html</description>
            <styleUrl>#msn_info</styleUrl>
            <Point>
                <coordinates>3.969532,44.518677</coordinates>
            </Point>
        </Placemark>

        <Placemark>
            <name>Aiglun 3.3</name>
            <description> URL: https://www.descente-canyon.com/canyoning/canyon/2223/Aiglun.html</description>
            <styleUrl>#msn_info</styleUrl>
            <Point>
                <coordinates>6.909033,43.864429</coordinates>
            </Point>
        </Placemark>

        <Placemark>
            <name>Riolan 3.5</name>
            <description> URL: https://www.descente-canyon.com/canyoning/canyon/2224/Riolan.html</description>
            <styleUrl>#msn_info</styleUrl>
            <Point>
                <coordinates>6.943639,43.876160</coordinates>
            </Point>
        </Placemark>

        <Placemark>
            <name>Infernet 2.4</name>
            <description> URL: https://www.descente-canyon.com/canyoning/canyon/2225/Infernet.html</description>
            <styleUrl>#msn_info</styleUrl>
            <Point>
                <coordinates>7.287037,43.941853</coordinates>
            </Point>
        </Placemark>

        <Placemark>
            <name>Planfa&#xe9; 2.8</name>
            <description> URL: https://www.descente-canyon.com/canyoning/canyon/2226/Planfae.html</description>
            <styleUrl>#msn_info</styleUrl>
            <Point>
                <coordinates>7.312316,43.891785</coordinates>
            </Point>
        </Placemark>

        <Placemark>
            <name>Imberguet (Aval) 3.0</name>
            <description> URL: https://www.descente-canyon.com/canyoning/canyon/2227/Imberguet-Aval.html</description>
            <styleUrl>#msn_info</styleUrl>
            <Point>
                <coordinates>7.257916,43.903336</coordinates>
            </Point>
        </Placemark>

        <Placemark>
            <name>La Boll&#xe8;ne 3.0</name>
            <description> URL: https://www.descente-canyon.com/canyoning/canyon/2228/La-Bollene.html</description>
            <styleUrl>#msn_info</styleUrl>
            <Point>
                <coordinates>7.334216,43.984379</coordinates>
            </Point>
        </Placemark>

        <Placemark>
            <name>Bagnolar 3.1</name>
            <description> URL: https://www.descente-canyon.com/canyoning/canyon/2229/Bagnolar.html</description>
            <styleUrl>#msn_info</styleUrl>
            <Point>
                <coordinates>7.259907,43.967213</coordinates>
            </Point>
        </Placemark>

        <Placemark>
            <name>Pe&#xef;ra 3.1</name>
            <description> URL: https://www.descente-canyon.com/canyoning/canyon/2230/Peira.html</description>
            <styleUrl>#msn_info</styleUrl>
            <Point>
                <coordinates>7.269353,43.912590</coordinates>
            </Point>
        </Placemark>

        <Placemark>
            <name>Audin 2.6</name>
            <description> URL: https://www.descente-canyon.com/canyoning/canyon/2231/Audin.html</description>
            <styleUrl>#msn_info</styleUrl>
            <Point>
                <coordinates>7.539741,43.894695</coordinates>
            </Point>
        </Placemark>

        <Placemark>
            <name>Bendola (M&#xe9;diane) 2.4</name>
            <description> URL: https://www.descente-canyon.com/canyoning/canyon/2232/Bendola-Mediane.html</description>
            <styleUrl>#msn_info</styleUrl>
            <Point>
                <coordinates>7.576127,43.977295</coordinates>
            </Point>
        </Placemark>

        <Placemark>
            <name>Maglia 3.7</name>
            <description> URL: https://www.descente-canyon.com/canyoning/canyon/2235/Maglia.html</description>
            <styleUrl>#msn_info</styleUrl>
            <Point>
                <coordinates>7.505111,43.959335</coordinates>
            </Point>
        </Placemark>

        <Placemark>
            <name>Morgh&#xe9; 3.2</name>
            <description> URL: https://www.descente-canyon.com/canyoning/canyon/2236/Morghe.html</description>
            <styleUrl>#msn_info</styleUrl>
            <Point>
                <coordinates>7.495976,43.958408</coordinates>
            </Point>
        </Placemark>

        <Placemark>
            <name>Carl&#xe9;va 3.0</name>
            <description> URL: https://www.descente-canyon.com/canyoning/canyon/2237/Carleva.html</description>
            <styleUrl>#msn_info</styleUrl>
            <Point>
                <coordinates>7.528853,43.933586</coordinates>
            </Point>
        </Placemark>

        <Placemark>
            <name>Bendola (Sup&#xe9;rieure) 3.0</name>
            <description> URL: https://www.descente-canyon.com/canyoning/canyon/2238/Bendola-Superieure.html</description>
            <styleUrl>#msn_info</styleUrl>
            <Point>
                <coordinates>7.620053,43.992744</coordinates>
            </Point>
        </Placemark>

        <Placemark>
            <name>Hort de Dieu 0.0</name>
            <description> URL: https://www.descente-canyon.com/canyoning/canyon/2239/Hort-de-Dieu.html</description>
            <styleUrl>#msn_info</styleUrl>
            <Point>
                <coordinates>3.582101,44.094303</coordinates>
            </Point>
        </Placemark>

        <Placemark>
            <name>Lergue 0.0</name>
            <description> URL: https://www.descente-canyon.com/canyoning/canyon/2240/Lergue.html</description>
            <styleUrl>#msn_info</styleUrl>
            <Point>
                <coordinates>3.313365,43.818611</coordinates>
            </Point>
        </Placemark>

        <Placemark>
            <name>Colombi&#xe8;res 0.0</name>
            <description> URL: https://www.descente-canyon.com/canyoning/canyon/2241/Colombieres.html</description>
            <styleUrl>#msn_info</styleUrl>
            <Point>
                <coordinates>3.010146,43.595032</coordinates>
            </Point>
        </Placemark>

        <Placemark>
            <name>B&#xe8;s-Courmes 3.0</name>
            <description> URL: https://www.descente-canyon.com/canyoning/canyon/2242/Bes-Courmes.html</description>
            <styleUrl>#msn_info</styleUrl>
            <Point>
                <coordinates>7.003201,43.741570</coordinates>
            </Point>
        </Placemark>

        <Placemark>
            <name>Bronze 2.3</name>
            <description> URL: https://www.descente-canyon.com/canyoning/canyon/2243/Bronze.html</description>
            <styleUrl>#msn_info</styleUrl>
            <Point>
                <coordinates>6.446593,46.059677</coordinates>
            </Point>
        </Placemark>

        <Placemark>
            <name>Beal Noir 1.9</name>
            <description> URL: https://www.descente-canyon.com/canyoning/canyon/2256/Beal-Noir.html</description>
            <styleUrl>#msn_info</styleUrl>
            <Point>
                <coordinates>6.611945,44.708057</coordinates>
            </Point>
        </Placemark>

        <Placemark>
            <name>Tramouillon (Inferieur) 2.0</name>
            <description> URL: https://www.descente-canyon.com/canyoning/canyon/2257/Tramouillon-Inferieur.html</description>
            <styleUrl>#msn_info</styleUrl>
            <Point>
                <coordinates>6.570903,44.712776</coordinates>
            </Point>
        </Placemark>

        <Placemark>
            <name>Queyrieres 1.3</name>
            <description> URL: https://www.descente-canyon.com/canyoning/canyon/2258/Queyrieres.html</description>
            <styleUrl>#msn_info</styleUrl>
            <Point>
                <coordinates>6.586204,44.828243</coordinates>
            </Point>
        </Placemark>

        <Placemark>
            <name>Reallon 2.6</name>
            <description> URL: https://www.descente-canyon.com/canyoning/canyon/2259/Reallon.html</description>
            <styleUrl>#msn_info</styleUrl>
            <Point>
                <coordinates>6.364270,44.596481</coordinates>
            </Point>
        </Placemark>

        <Placemark>
            <name>Pisse 2.3</name>
            <description> URL: https://www.descente-canyon.com/canyoning/canyon/2260/Pisse.html</description>
            <styleUrl>#msn_info</styleUrl>
            <Point>
                <coordinates>6.491291,44.991787</coordinates>
            </Point>
        </Placemark>

        <Placemark>
            <name>Acles 2.6</name>
            <description> URL: https://www.descente-canyon.com/canyoning/canyon/2261/Acles.html</description>
            <styleUrl>#msn_info</styleUrl>
            <Point>
                <coordinates>6.670208,45.001247</coordinates>
            </Point>
        </Placemark>

        <Placemark>
            <name>Eychauda 2.7</name>
            <description> URL: https://www.descente-canyon.com/canyoning/canyon/2262/Eychauda.html</description>
            <styleUrl>#msn_info</styleUrl>
            <Point>
                <coordinates>6.486389,44.877640</coordinates>
            </Point>
        </Placemark>

        <Placemark>
            <name>Gourfouran 0.0</name>
            <description> URL: https://www.descente-canyon.com/canyoning/canyon/2263/Gourfouran.html</description>
            <styleUrl>#msn_info</styleUrl>
            <Point>
                <coordinates>6.569930,44.738262</coordinates>
            </Point>
        </Placemark>

        <Placemark>
            <name>Pra Reboul 2.8</name>
            <description> URL: https://www.descente-canyon.com/canyoning/canyon/2264/Pra-Reboul.html</description>
            <styleUrl>#msn_info</styleUrl>
            <Point>
                <coordinates>6.600278,44.721611</coordinates>
            </Point>
        </Placemark>

        <Placemark>
            <name>Chichin 3.4</name>
            <description> URL: https://www.descente-canyon.com/canyoning/canyon/2265/Chichin.html</description>
            <styleUrl>#msn_info</styleUrl>
            <Point>
                <coordinates>6.446836,44.735023</coordinates>
            </Point>
        </Placemark>

        <Placemark>
            <name>Oules de Freissinieres 3.8</name>
            <description> URL: https://www.descente-canyon.com/canyoning/canyon/2266/Oules-de-Freissinieres.html</description>
            <styleUrl>#msn_info</styleUrl>
            <Point>
                <coordinates>6.449167,44.732777</coordinates>
            </Point>
        </Placemark>

        <Placemark>
            <name>Buchardet 2.9</name>
            <description> URL: https://www.descente-canyon.com/canyoning/canyon/2267/Buchardet.html</description>
            <styleUrl>#msn_info</styleUrl>
            <Point>
                <coordinates>6.205000,44.791203</coordinates>
            </Point>
        </Placemark>

        <Placemark>
            <name>Oules du Diable 3.4</name>
            <description> URL: https://www.descente-canyon.com/canyoning/canyon/2268/Oules-du-Diable.html</description>
            <styleUrl>#msn_info</styleUrl>
            <Point>
                <coordinates>6.195625,44.813332</coordinates>
            </Point>
        </Placemark>

        <Placemark>
            <name>Valsenestre 1.9</name>
            <description> URL: https://www.descente-canyon.com/canyoning/canyon/2269/Valsenestre.html</description>
            <styleUrl>#msn_info</styleUrl>
            <Point>
                <coordinates>6.029722,44.902222</coordinates>
            </Point>
        </Placemark>

        <Placemark>
            <name>La Chalp 1.9</name>
            <description> URL: https://www.descente-canyon.com/canyoning/canyon/2270/La-Chalp.html</description>
            <styleUrl>#msn_info</styleUrl>
            <Point>
                <coordinates>6.030185,44.873703</coordinates>
            </Point>
        </Placemark>

        <Placemark>
            <name>Grand Vent 2.8</name>
            <description> URL: https://www.descente-canyon.com/canyoning/canyon/2271/Grand-Vent.html</description>
            <styleUrl>#msn_info</styleUrl>
            <Point>
                <coordinates>5.959722,44.970833</coordinates>
            </Point>
        </Placemark>

        <Placemark>
            <name>Ascension 2.0</name>
            <description> URL: https://www.descente-canyon.com/canyoning/canyon/2272/Ascension.html</description>
            <styleUrl>#msn_info</styleUrl>
            <Point>
                <coordinates>6.578472,44.766319</coordinates>
            </Point>
        </Placemark>

        <Placemark>
            <name>Naval 1.2</name>
            <description> URL: https://www.descente-canyon.com/canyoning/canyon/2273/Naval.html</description>
            <styleUrl>#msn_info</styleUrl>
            <Point>
                <coordinates>6.498055,44.737083</coordinates>
            </Point>
        </Placemark>

        <Placemark>
            <name>Articol 1.9</name>
            <description> URL: https://www.descente-canyon.com/canyoning/canyon/2274/Articol.html</description>
            <styleUrl>#msn_info</styleUrl>
            <Point>
                <coordinates>6.034259,45.176853</coordinates>
            </Point>
        </Placemark>

        <Placemark>
            <name>Baton 2.6</name>
            <description> URL: https://www.descente-canyon.com/canyoning/canyon/2275/Baton.html</description>
            <styleUrl>#msn_info</styleUrl>
            <Point>
                <coordinates>5.984000,45.125946</coordinates>
            </Point>
        </Placemark>

        <Placemark>
            <name>Besse 1.4</name>
            <description> URL: https://www.descente-canyon.com/canyoning/canyon/2276/Besse.html</description>
            <styleUrl>#msn_info</styleUrl>
            <Point>
                <coordinates>6.160370,45.068798</coordinates>
            </Point>
        </Placemark>

        <Placemark>
            <name>Diable 3.4</name>
            <description> URL: https://www.descente-canyon.com/canyoning/canyon/2277/Diable.html</description>
            <styleUrl>#msn_info</styleUrl>
            <Point>
                <coordinates>6.175389,44.958889</coordinates>
            </Point>
        </Placemark>

        <Placemark>
            <name>Lanchatra 3.1</name>
            <description> URL: https://www.descente-canyon.com/canyoning/canyon/2278/Lanchatra.html</description>
            <styleUrl>#msn_info</styleUrl>
            <Point>
                <coordinates>6.151574,44.966110</coordinates>
            </Point>
        </Placemark>

        <Placemark>
            <name>Meije (aval) 3.6</name>
            <description> URL: https://www.descente-canyon.com/canyoning/canyon/2279/Meije-aval.html</description>
            <styleUrl>#msn_info</styleUrl>
            <Point>
                <coordinates>6.303425,45.040257</coordinates>
            </Point>
        </Placemark>

        <Placemark>
            <name>Rochail 2.7</name>
            <description> URL: https://www.descente-canyon.com/canyoning/canyon/2280/Rochail.html</description>
            <styleUrl>#msn_info</styleUrl>
            <Point>
                <coordinates>6.055000,45.016102</coordinates>
            </Point>
        </Placemark>

        <Placemark>
            <name>Grand Gaudin 1.1</name>
            <description> URL: https://www.descente-canyon.com/canyoning/canyon/2281/Grand-Gaudin.html</description>
            <styleUrl>#msn_info</styleUrl>
            <Point>
                <coordinates>5.861776,43.357376</coordinates>
            </Point>
        </Placemark>

        <Placemark>
            <name>Boud&#xe8;ne 1.9</name>
            <description> URL: https://www.descente-canyon.com/canyoning/canyon/2282/Boudene.html</description>
            <styleUrl>#msn_info</styleUrl>
            <Point>
                <coordinates>3.674083,43.974888</coordinates>
            </Point>
        </Placemark>

        <Placemark>
            <name>Ga 2.9</name>
            <description> URL: https://www.descente-canyon.com/canyoning/canyon/2283/Ga.html</description>
            <styleUrl>#msn_info</styleUrl>
            <Point>
                <coordinates>6.282448,45.050793</coordinates>
            </Point>
        </Placemark>

        <Placemark>
            <name>Encanaux 1.6</name>
            <description> URL: https://www.descente-canyon.com/canyoning/canyon/2285/Encanaux.html</description>
            <styleUrl>#msn_info</styleUrl>
            <Point>
                <coordinates>5.678722,43.338840</coordinates>
            </Point>
        </Placemark>

        <Placemark>
            <name>Malancon 2.2</name>
            <description> URL: https://www.descente-canyon.com/canyoning/canyon/2286/Malancon.html</description>
            <styleUrl>#msn_info</styleUrl>
            <Point>
                <coordinates>5.393310,44.200378</coordinates>
            </Point>
        </Placemark>

        <Placemark>
            <name>Bayon 0.6</name>
            <description> URL: https://www.descente-canyon.com/canyoning/canyon/2287/Bayon.html</description>
            <styleUrl>#msn_info</styleUrl>
            <Point>
                <coordinates>5.574403,43.519661</coordinates>
            </Point>
        </Placemark>

        <Placemark>
            <name>Saut du Loup 0.0</name>
            <description> URL: https://www.descente-canyon.com/canyoning/canyon/2288/Saut-du-Loup.html</description>
            <styleUrl>#msn_info</styleUrl>
            <Point>
                <coordinates>6.998101,43.747330</coordinates>
            </Point>
        </Placemark>

        <Placemark>
            <name>Cause (aval) 0.4</name>
            <description> URL: https://www.descente-canyon.com/canyoning/canyon/2289/Cause-aval.html</description>
            <styleUrl>#msn_info</styleUrl>
            <Point>
                <coordinates>5.509429,43.532589</coordinates>
            </Point>
        </Placemark>

        <Placemark>
            <name>Vern&#xe8;des 2.4</name>
            <description> URL: https://www.descente-canyon.com/canyoning/canyon/2290/Vernedes.html</description>
            <styleUrl>#msn_info</styleUrl>
            <Point>
                <coordinates>3.508132,43.996159</coordinates>
            </Point>
        </Placemark>

        <Placemark>
            <name>Vallon 2.8</name>
            <description> URL: https://www.descente-canyon.com/canyoning/canyon/2291/Vallon.html</description>
            <styleUrl>#msn_info</styleUrl>
            <Point>
                <coordinates>6.277778,45.180370</coordinates>
            </Point>
        </Placemark>

        <Placemark>
            <name>Aiguilles 2.2</name>
            <description> URL: https://www.descente-canyon.com/canyoning/canyon/2292/Aiguilles.html</description>
            <styleUrl>#msn_info</styleUrl>
            <Point>
                <coordinates>6.284791,45.171947</coordinates>
            </Point>
        </Placemark>

        <Placemark>
            <name>Lou Gras 1.5</name>
            <description> URL: https://www.descente-canyon.com/canyoning/canyon/2293/Lou-Gras.html</description>
            <styleUrl>#msn_info</styleUrl>
            <Point>
                <coordinates>7.435099,43.758343</coordinates>
            </Point>
        </Placemark>

        <Placemark>
            <name>Bataill&#xe8;re 1.9</name>
            <description> URL: https://www.descente-canyon.com/canyoning/canyon/2294/Bataillere.html</description>
            <styleUrl>#msn_info</styleUrl>
            <Point>
                <coordinates>7.196989,43.901299</coordinates>
            </Point>
        </Placemark>

        <Placemark>
            <name>Arifat 1.2</name>
            <description> URL: https://www.descente-canyon.com/canyoning/canyon/2295/Arifat.html</description>
            <styleUrl>#msn_info</styleUrl>
            <Point>
                <coordinates>2.329914,43.772552</coordinates>
            </Point>
        </Placemark>

        <Placemark>
            <name>Dourdou 1.6</name>
            <description> URL: https://www.descente-canyon.com/canyoning/canyon/2296/Dourdou.html</description>
            <styleUrl>#msn_info</styleUrl>
            <Point>
                <coordinates>2.918029,43.683514</coordinates>
            </Point>
        </Placemark>

        <Placemark>
            <name>Banquet 2.3</name>
            <description> URL: https://www.descente-canyon.com/canyoning/canyon/2297/Banquet.html</description>
            <styleUrl>#msn_info</styleUrl>
            <Point>
                <coordinates>2.476878,43.512974</coordinates>
            </Point>
        </Placemark>

        <Placemark>
            <name>Albine 2.3</name>
            <description> URL: https://www.descente-canyon.com/canyoning/canyon/2298/Albine.html</description>
            <styleUrl>#msn_info</styleUrl>
            <Point>
                <coordinates>2.999568,43.582542</coordinates>
            </Point>
        </Placemark>

        <Placemark>
            <name>Gour de l&apos;Oule 0.0</name>
            <description> URL: https://www.descente-canyon.com/canyoning/canyon/2299/Gour-de-l-Oule.html</description>
            <styleUrl>#msn_info</styleUrl>
            <Point>
                <coordinates>5.666800,43.301899</coordinates>
            </Point>
        </Placemark>

        <Placemark>
            <name>Vacca 3.3</name>
            <description> URL: https://www.descente-canyon.com/canyoning/canyon/2300/Vacca.html</description>
            <styleUrl>#msn_info</styleUrl>
            <Point>
                <coordinates>9.272040,41.824989</coordinates>
            </Point>
        </Placemark>

        <Placemark>
            <name>Arcs 1.8</name>
            <description> URL: https://www.descente-canyon.com/canyoning/canyon/2302/Arcs.html</description>
            <styleUrl>#msn_info</styleUrl>
            <Point>
                <coordinates>3.735045,43.817387</coordinates>
            </Point>
        </Placemark>

        <Placemark>
            <name>Cornillou 2.1</name>
            <description> URL: https://www.descente-canyon.com/canyoning/canyon/2303/Cornillou.html</description>
            <styleUrl>#msn_info</styleUrl>
            <Point>
                <coordinates>2.687077,45.356533</coordinates>
            </Point>
        </Placemark>

        <Placemark>
            <name>San Guivanni 1.4</name>
            <description> URL: https://www.descente-canyon.com/canyoning/canyon/2304/San-Guivanni.html</description>
            <styleUrl>#msn_info</styleUrl>
            <Point>
                <coordinates>9.387315,42.805832</coordinates>
            </Point>
        </Placemark>

        <Placemark>
            <name>Saint-Gineis-en-Coiron 0.8</name>
            <description> URL: https://www.descente-canyon.com/canyoning/canyon/2305/Saint-Gineis-en-Coiron.html</description>
            <styleUrl>#msn_info</styleUrl>
            <Point>
                <coordinates>4.533405,44.632961</coordinates>
            </Point>
        </Placemark>

        <Placemark>
            <name>Cladu&#xe8;gne 1.3</name>
            <description> URL: https://www.descente-canyon.com/canyoning/canyon/2306/Claduegne.html</description>
            <styleUrl>#msn_info</styleUrl>
            <Point>
                <coordinates>4.542847,44.622654</coordinates>
            </Point>
        </Placemark>

        <Placemark>
            <name>Rochecolombe 2.1</name>
            <description> URL: https://www.descente-canyon.com/canyoning/canyon/2307/Rochecolombe.html</description>
            <styleUrl>#msn_info</styleUrl>
            <Point>
                <coordinates>4.440600,44.516911</coordinates>
            </Point>
        </Placemark>

        <Placemark>
            <name>Vernet 0.7</name>
            <description> URL: https://www.descente-canyon.com/canyoning/canyon/2308/Vernet.html</description>
            <styleUrl>#msn_info</styleUrl>
            <Point>
                <coordinates>4.589117,44.626949</coordinates>
            </Point>
        </Placemark>

        <Placemark>
            <name>Gacheti&#xe8;re I et II 0.5</name>
            <description> URL: https://www.descente-canyon.com/canyoning/canyon/2310/Gachetiere-I-et-II.html</description>
            <styleUrl>#msn_info</styleUrl>
            <Point>
                <coordinates>5.645278,45.290890</coordinates>
            </Point>
        </Placemark>

        <Placemark>
            <name>Purcaraccia 3.4</name>
            <description> URL: https://www.descente-canyon.com/canyoning/canyon/2311/Purcaraccia.html</description>
            <styleUrl>#msn_info</styleUrl>
            <Point>
                <coordinates>9.271950,41.830959</coordinates>
            </Point>
        </Placemark>

        <Placemark>
            <name>Tignoso 3.5</name>
            <description> URL: https://www.descente-canyon.com/canyoning/canyon/2312/Tignoso.html</description>
            <styleUrl>#msn_info</styleUrl>
            <Point>
                <coordinates>9.186094,41.894417</coordinates>
            </Point>
        </Placemark>

        <Placemark>
            <name>Fattes 0.5</name>
            <description> URL: https://www.descente-canyon.com/canyoning/canyon/2313/Fattes.html</description>
            <styleUrl>#msn_info</styleUrl>
            <Point>
                <coordinates>6.484294,45.772583</coordinates>
            </Point>
        </Placemark>

        <Placemark>
            <name>Clergeon 0.5</name>
            <description> URL: https://www.descente-canyon.com/canyoning/canyon/2314/Clergeon.html</description>
            <styleUrl>#msn_info</styleUrl>
            <Point>
                <coordinates>5.852172,45.849339</coordinates>
            </Point>
        </Placemark>

        <Placemark>
            <name>Bayet 1.9</name>
            <description> URL: https://www.descente-canyon.com/canyoning/canyon/2315/Bayet.html</description>
            <styleUrl>#msn_info</styleUrl>
            <Point>
                <coordinates>6.433333,45.585419</coordinates>
            </Point>
        </Placemark>

        <Placemark>
            <name>Grand Vallon 2.7</name>
            <description> URL: https://www.descente-canyon.com/canyoning/canyon/2316/Grand-Vallon.html</description>
            <styleUrl>#msn_info</styleUrl>
            <Point>
                <coordinates>6.662916,45.175137</coordinates>
            </Point>
        </Placemark>

        <Placemark>
            <name>Cippetto 2.1</name>
            <description> URL: https://www.descente-canyon.com/canyoning/canyon/2317/Cippetto.html</description>
            <styleUrl>#msn_info</styleUrl>
            <Point>
                <coordinates>9.338403,42.515141</coordinates>
            </Point>
        </Placemark>

        <Placemark>
            <name>Bucatoggio 2.1</name>
            <description> URL: https://www.descente-canyon.com/canyoning/canyon/2318/Bucatoggio.html</description>
            <styleUrl>#msn_info</styleUrl>
            <Point>
                <coordinates>9.497847,42.360905</coordinates>
            </Point>
        </Placemark>

        <Placemark>
            <name>Bravone 1.6</name>
            <description> URL: https://www.descente-canyon.com/canyoning/canyon/2319/Bravone.html</description>
            <styleUrl>#msn_info</styleUrl>
            <Point>
                <coordinates>9.363148,42.295464</coordinates>
            </Point>
        </Placemark>

        <Placemark>
            <name>Ruda 2.4</name>
            <description> URL: https://www.descente-canyon.com/canyoning/canyon/2320/Ruda.html</description>
            <styleUrl>#msn_info</styleUrl>
            <Point>
                <coordinates>9.057917,42.363682</coordinates>
            </Point>
        </Placemark>

        <Placemark>
            <name>Falconaia 2.7</name>
            <description> URL: https://www.descente-canyon.com/canyoning/canyon/2321/Falconaia.html</description>
            <styleUrl>#msn_info</styleUrl>
            <Point>
                <coordinates>9.072500,42.370277</coordinates>
            </Point>
        </Placemark>

        <Placemark>
            <name>Agnone 1.2</name>
            <description> URL: https://www.descente-canyon.com/canyoning/canyon/2322/Agnone.html</description>
            <styleUrl>#msn_info</styleUrl>
            <Point>
                <coordinates>9.106759,42.117870</coordinates>
            </Point>
        </Placemark>

        <Placemark>
            <name>Spurtellu 1.1</name>
            <description> URL: https://www.descente-canyon.com/canyoning/canyon/2323/Spurtellu.html</description>
            <styleUrl>#msn_info</styleUrl>
            <Point>
                <coordinates>8.811875,42.266598</coordinates>
            </Point>
        </Placemark>

        <Placemark>
            <name>Tavulella 1.5</name>
            <description> URL: https://www.descente-canyon.com/canyoning/canyon/2324/Tavulella.html</description>
            <styleUrl>#msn_info</styleUrl>
            <Point>
                <coordinates>8.775900,42.250198</coordinates>
            </Point>
        </Placemark>

        <Placemark>
            <name>Dardu 3.2</name>
            <description> URL: https://www.descente-canyon.com/canyoning/canyon/2325/Dardu.html</description>
            <styleUrl>#msn_info</styleUrl>
            <Point>
                <coordinates>8.651458,42.246460</coordinates>
            </Point>
        </Placemark>

        <Placemark>
            <name>Sulleoni 3.3</name>
            <description> URL: https://www.descente-canyon.com/canyoning/canyon/2326/Sulleoni.html</description>
            <styleUrl>#msn_info</styleUrl>
            <Point>
                <coordinates>8.648958,42.193058</coordinates>
            </Point>
        </Placemark>

        <Placemark>
            <name>Ziocu 3.2</name>
            <description> URL: https://www.descente-canyon.com/canyoning/canyon/2327/Ziocu.html</description>
            <styleUrl>#msn_info</styleUrl>
            <Point>
                <coordinates>8.917778,42.197964</coordinates>
            </Point>
        </Placemark>

        <Placemark>
            <name>Richiusa 3.3</name>
            <description> URL: https://www.descente-canyon.com/canyoning/canyon/2328/Richiusa.html</description>
            <styleUrl>#msn_info</styleUrl>
            <Point>
                <coordinates>9.067314,42.098053</coordinates>
            </Point>
        </Placemark>

        <Placemark>
            <name>Piscia de l&apos;Onda 1.4</name>
            <description> URL: https://www.descente-canyon.com/canyoning/canyon/2329/Piscia-de-l-Onda.html</description>
            <styleUrl>#msn_info</styleUrl>
            <Point>
                <coordinates>9.028333,41.805923</coordinates>
            </Point>
        </Placemark>

        <Placemark>
            <name>Piscia in Alba 2.8</name>
            <description> URL: https://www.descente-canyon.com/canyoning/canyon/2330/Piscia-in-Alba.html</description>
            <styleUrl>#msn_info</styleUrl>
            <Point>
                <coordinates>9.073264,41.853889</coordinates>
            </Point>
        </Placemark>